{"type":"FeatureCollection","features":[{"type":"Feature","geometry":{"type":"Point","coordinates":[-0.290855,51.48082]},"properties":{"name":"A Maximis Ad Minima","category":"attraction","kind":"artwork","detail":"Artwork","image":"https://commons.wikimedia.org/wiki/Special:FilePath/At%20Royal%20Botanic%20Gardens%2C%20Kew%202024%20106.jpg?width=480","website":""}},{"type":"Feature","geometry":{"type":"Point","coordinates":[-0.293814,51.471184]},"properties":{"name":"Alcove","category":"attraction","kind":"yes","detail":"yes","image":"","website":""}},{"type":"Feature","geometry":{"type":"Point","coordinates":[-0.288658,51.482217]},"properties":{"name":"Aquatic Garden","category":"garden","kind":"garden","detail":"Garden","image":"","website":""}},{"type":"Feature","geometry":{"type":"Point","coordinates":[-0.30099,51.475707]},"properties":{"name":"Arboretum Nursery","category":"garden","kind":"garden","detail":"Garden","image":"","website":""}},{"type":"Feature","geometry":{"type":"Point","coordinates":[-0.292381,51.474226]},"properties":{"name":"Avenue Gate","category":"gate","kind":"gate","detail":"Entrance","image":"","website":""}},{"type":"Feature","geometry":{"type":"Point","coordinates":[-0.29755,51.479002]},"properties":{"name":"Azalea Garden","category":"garden","kind":"garden","detail":"Garden","image":"","website":""}},{"type":"Feature","geometry":{"type":"Point","coordinates":[-0.300757,51.478419]},"properties":{"name":"Bamboo Garden","category":"garden","kind":"garden","detail":"Garden","image":"","website":""}},{"type":"Feature","geometry":{"type":"Point","coordinates":[-0.292657,51.476369]},"properties":{"name":"Berberis Dell","category":"garden","kind":"garden","detail":"Garden","image":"","website":""}},{"type":"Feature","geometry":{"type":"Point","coordinates":[-0.303765,51.475554]},"properties":{"name":"Big dining table with chairs","category":"attraction","kind":"attraction","detail":"Attraction","image":"","website":""}},{"type":"Feature","geometry":{"type":"Point","coordinates":[-0.288682,51.482492]},"properties":{"name":"Bootstrapping DNA","category":"attraction","kind":"artwork","detail":"Artwork","image":"https://commons.wikimedia.org/wiki/Special:FilePath/Kew%20Gardens%2C%20Bootstrap%20DNA%20sculpture%20by%20Jodrell.jpg?width=480","website":""}},{"type":"Feature","geometry":{"type":"Point","coordinates":[-0.293768,51.483615]},"properties":{"name":"Bowl and Kerb","category":"attraction","kind":"artwork","detail":"Artwork","image":"","website":"https://artuk.org/discover/artworks/bowl-and-kerb-296424"}},{"type":"Feature","geometry":{"type":"Point","coordinates":[-0.295341,51.484203]},"properties":{"name":"Boy with a Dolphin","category":"attraction","kind":"artwork","detail":"Artwork","image":"","website":""}},{"type":"Feature","geometry":{"type":"Point","coordinates":[-0.297556,51.481311]},"properties":{"name":"Brentford Gate","category":"gate","kind":"gate","detail":"Entrance","image":"","website":"https://www.kew.org/kew-gardens/whats-on/kew-explorer-land-train"}},{"type":"Feature","geometry":{"type":"Point","coordinates":[-0.288856,51.48351]},"properties":{"name":"Cambridge Cottage","category":"attraction","kind":"building","detail":"building","image":"https://commons.wikimedia.org/wiki/Special:FilePath/Detail%20from%20Kew%20Cottage%2C%20Kew%20Green%2C%20home%20of%20the%20Duchess%20of%20Cambridge%2C%20dated%20June%201865%20(5182092821)%20(cropped).jpg?width=480","website":""}},{"type":"Feature","geometry":{"type":"Point","coordinates":[-0.307031,51.473556]},"properties":{"name":"Conservation Area","category":"garden","kind":"garden","detail":"Garden","image":"","website":""}},{"type":"Feature","geometry":{"type":"Point","coordinates":[-0.295273,51.476821]},"properties":{"name":"Cruciform Sundial","category":"attraction","kind":"artwork","detail":"Artwork","image":"","website":""}},{"type":"Feature","geometry":{"type":"Point","coordinates":[-0.289062,51.480384]},"properties":{"name":"Cumberland Gate","category":"gate","kind":"gate","detail":"Entrance","image":"https://commons.wikimedia.org/wiki/Special:FilePath/PSM%20V50%20D193%20Kew%20gardens%20cumberland%20gate%20with%20guard.jpg?width=480","website":""}},{"type":"Feature","geometry":{"type":"Point","coordinates":[-0.296338,51.474774]},"properties":{"name":"Davies Exploration House","category":"glasshouse","kind":"glasshouse","detail":"Glasshouse","image":"https://commons.wikimedia.org/wiki/Special:FilePath/At%20Royal%20Botanic%20Gardens%2C%20Kew%202024%20300.jpg?width=480","website":""}},{"type":"Feature","geometry":{"type":"Point","coordinates":[-0.291288,51.484375]},"properties":{"name":"Elizabeth Gate","category":"gate","kind":"gate","detail":"Entrance","image":"https://commons.wikimedia.org/wiki/Special:FilePath/Elizabeth%20Gate%2C%20Kew%20Gardens%20-%20geograph.org.uk%20-%20362289.jpg?width=480","website":""}},{"type":"Feature","geometry":{"type":"Point","coordinates":[-0.29652,51.48203]},"properties":{"name":"Family Kitchen","category":"food","kind":"cafe","detail":"Café","image":"","website":""}},{"type":"Feature","geometry":{"type":"Point","coordinates":[-0.295712,51.473819]},"properties":{"name":"Glasshouse Walkway","category":"facility","kind":"drinking_water","detail":"Drinking water","image":"http://findafountain.org/system/867/original/uk-greater-london-london-richmond-glasshouse-walkway-kew-gardens-outdoor-fountain.jpg","website":""}},{"type":"Feature","geometry":{"type":"Point","coordinates":[-0.289281,51.482457]},"properties":{"name":"Grass Garden","category":"garden","kind":"garden","detail":"Garden","image":"","website":"https://www.kew.org/visit-kew-gardens/explore/attractions/grass-garden"}},{"type":"Feature","geometry":{"type":"Point","coordinates":[-0.291191,51.478898]},"properties":{"name":"Guardian Lion","category":"attraction","kind":"artwork","detail":"Artwork","image":"","website":""}},{"type":"Feature","geometry":{"type":"Point","coordinates":[-0.290438,51.484976]},"properties":{"name":"Herbarium Gate","category":"gate","kind":"gate","detail":"Entrance","image":"","website":""}},{"type":"Feature","geometry":{"type":"Point","coordinates":[-0.295525,51.483992]},"properties":{"name":"Iron pillar from Hampton Court Palace","category":"attraction","kind":"artwork","detail":"Artwork","image":"","website":""}},{"type":"Feature","geometry":{"type":"Point","coordinates":[-0.305464,51.475922]},"properties":{"name":"Isleworth Ferry Gate","category":"gate","kind":"gate","detail":"Entrance","image":"","website":""}},{"type":"Feature","geometry":{"type":"Point","coordinates":[-0.287896,51.481823]},"properties":{"name":"Jodrell Gate","category":"gate","kind":"gate","detail":"Entrance","image":"","website":""}},{"type":"Feature","geometry":{"type":"Point","coordinates":[-0.295055,51.483832]},"properties":{"name":"Kew Palace","category":"gallery","kind":"attraction","detail":"Attraction","image":"https://commons.wikimedia.org/wiki/File:Kew_Palace_(5942717068).jpg","website":"https://www.hrp.org.uk/kew-palace/"}},{"type":"Feature","geometry":{"type":"Point","coordinates":[-0.294712,51.476762]},"properties":{"name":"King William's Temple","category":"attraction","kind":"monument","detail":"Monument","image":"https://commons.wikimedia.org/wiki/Special:FilePath/King%20William's%20Temple%2C%20Kew%20Gardens%20(3997546741).jpg?width=480","website":""}},{"type":"Feature","geometry":{"type":"Point","coordinates":[-0.288977,51.481502]},"properties":{"name":"Kitchen Garden","category":"garden","kind":"garden","detail":"Garden","image":"","website":""}},{"type":"Feature","geometry":{"type":"Point","coordinates":[-0.290356,51.480853]},"properties":{"name":"Leaf Spirit","category":"attraction","kind":"artwork","detail":"Artwork","image":"","website":""}},{"type":"Feature","geometry":{"type":"Point","coordinates":[-0.293643,51.470605]},"properties":{"name":"Lion Gate","category":"gate","kind":"gate","detail":"Entrance","image":"https://commons.wikimedia.org/wiki/Special:FilePath/Kew%20Gardens%200573.JPG?width=480","website":""}},{"type":"Feature","geometry":{"type":"Point","coordinates":[-0.303605,51.475425]},"properties":{"name":"Log trail & Giant badger sett","category":"attraction","kind":"attraction","detail":"Attraction","image":"","website":""}},{"type":"Feature","geometry":{"type":"Point","coordinates":[-0.292512,51.474396]},"properties":{"name":"Marianne North Gallery","category":"gallery","kind":"gallery","detail":"Gallery","image":"https://commons.wikimedia.org/wiki/Special:FilePath/Kew%20Gardens%20Marian%20North%20Gallery.jpg?width=480","website":"https://www.kew.org/kew-gardens/attractions/marianne-north-gallery"}},{"type":"Feature","geometry":{"type":"Point","coordinates":[-0.291577,51.482412]},"properties":{"name":"Medici Vase","category":"attraction","kind":"artwork","detail":"Artwork","image":"","website":"https://artuk.org/discover/artworks/medici-vase-296426"}},{"type":"Feature","geometry":{"type":"Point","coordinates":[-0.295282,51.476829]},"properties":{"name":"Mediterranean Garden","category":"garden","kind":"garden","detail":"Garden","image":"","website":""}},{"type":"Feature","geometry":{"type":"Point","coordinates":[-0.294749,51.484058]},"properties":{"name":"Meridian","category":"attraction","kind":"artwork","detail":"Artwork","image":"","website":""}},{"type":"Feature","geometry":{"type":"Point","coordinates":[-0.304253,51.475821]},"properties":{"name":"Natural Area","category":"attraction","kind":"attraction","detail":"Attraction","image":"","website":"https://www.kew.org/kew-gardens/whats-on/kew-explorer-land-train"}},{"type":"Feature","geometry":{"type":"Point","coordinates":[-0.292875,51.483421]},"properties":{"name":"Orangery Restaurant","category":"facility","kind":"toilets","detail":"Toilets","image":"","website":""}},{"type":"Feature","geometry":{"type":"Point","coordinates":[-0.289299,51.481094]},"properties":{"name":"Order Beds","category":"garden","kind":"garden","detail":"Garden","image":"","website":""}},{"type":"Feature","geometry":{"type":"Point","coordinates":[-0.289292,51.480588]},"properties":{"name":"Out in the Fields","category":"attraction","kind":"artwork","detail":"Artwork","image":"","website":""}},{"type":"Feature","geometry":{"type":"Point","coordinates":[-0.295712,51.471269]},"properties":{"name":"Pagoda","category":"attraction","kind":"folly","detail":"folly","image":"https://commons.wikimedia.org/wiki/Special:FilePath/The%20Chinese%20Pagoda%20in%20Kew%20Gardens.JPG?width=480","website":""}},{"type":"Feature","geometry":{"type":"Point","coordinates":[-0.292747,51.479056]},"properties":{"name":"Palm House","category":"glasshouse","kind":"glasshouse","detail":"Glasshouse","image":"https://commons.wikimedia.org/wiki/Special:FilePath/Kew%20Gardens%20Palm%20House%2C%20London%20-%20July%202009.jpg?width=480","website":""}},{"type":"Feature","geometry":{"type":"Point","coordinates":[-0.294238,51.473118]},"properties":{"name":"Pavilion Bar and Grill","category":"food","kind":"restaurant","detail":"Restaurant","image":"","website":"https://www.kew.org/read-and-watch/pavilion-bar-and-grill"}},{"type":"Feature","geometry":{"type":"Point","coordinates":[-0.292941,51.472675]},"properties":{"name":"Pavilion Gate","category":"gate","kind":"gate","detail":"Entrance","image":"","website":""}},{"type":"Feature","geometry":{"type":"Point","coordinates":[-0.295101,51.484286]},"properties":{"name":"Piping Satyr","category":"attraction","kind":"artwork","detail":"Artwork","image":"https://commons.wikimedia.org/wiki/Special:FilePath/Kew_Gardens%2C_Statue_of_Pan_in_Kew_Palace_garden.jpg?width=480","website":""}},{"type":"Feature","geometry":{"type":"Point","coordinates":[-0.290559,51.48156]},"properties":{"name":"Princess of Wales Conservatory","category":"glasshouse","kind":"glasshouse","detail":"Glasshouse","image":"https://commons.wikimedia.org/wiki/Special:FilePath/At%20Royal%20Botanic%20Gardens%2C%20Kew%202024%20063.jpg?width=480","website":""}},{"type":"Feature","geometry":{"type":"Point","coordinates":[-0.303715,51.472935]},"properties":{"name":"Queen Charlotte's Cottage","category":"attraction","kind":"folly","detail":"folly","image":"https://commons.wikimedia.org/wiki/Special:FilePath/Kew%20Gardens%20Queen%20Charlottes%20Cottage.jpg?width=480","website":""}},{"type":"Feature","geometry":{"type":"Point","coordinates":[-0.296354,51.483533]},"properties":{"name":"Queen Elizabeth II Gate","category":"gate","kind":"gate","detail":"Entrance","image":"","website":""}},{"type":"Feature","geometry":{"type":"Point","coordinates":[-0.304669,51.473233]},"properties":{"name":"Queen's Cottage Grounds","category":"attraction","kind":"landmark","detail":"Landmark","image":"","website":""}},{"type":"Feature","geometry":{"type":"Point","coordinates":[-0.300682,51.473476]},"properties":{"name":"Redwood Grove","category":"garden","kind":"garden","detail":"Garden","image":"","website":""}},{"type":"Feature","geometry":{"type":"Point","coordinates":[-0.300328,51.479554]},"properties":{"name":"Rhododendron Dell","category":"garden","kind":"garden","detail":"Garden","image":"","website":""}},{"type":"Feature","geometry":{"type":"Point","coordinates":[-0.289886,51.481549]},"properties":{"name":"Rock Garden","category":"garden","kind":"garden","detail":"Garden","image":"","website":""}},{"type":"Feature","geometry":{"type":"Point","coordinates":[-0.293542,51.478877]},"properties":{"name":"Rose Garden","category":"garden","kind":"garden","detail":"Garden","image":"","website":""}},{"type":"Feature","geometry":{"type":"Point","coordinates":[-0.295199,51.483373]},"properties":{"name":"Royal Kitchens","category":"attraction","kind":"attraction","detail":"Attraction","image":"","website":""}},{"type":"Feature","geometry":{"type":"Point","coordinates":[-0.292973,51.473888]},"properties":{"name":"Ruined Arch","category":"attraction","kind":"folly","detail":"folly","image":"https://commons.wikimedia.org/wiki/Special:FilePath/Kew%20Ruined%20Arch%2020190718%20120249%20(48314299951).jpg?width=480","website":""}},{"type":"Feature","geometry":{"type":"Point","coordinates":[-0.290972,51.482585]},"properties":{"name":"Secluded Garden","category":"garden","kind":"garden","detail":"Garden","image":"","website":""}},{"type":"Feature","geometry":{"type":"Point","coordinates":[-0.291022,51.482604]},"properties":{"name":"Seven Slate Towers","category":"attraction","kind":"artwork","detail":"Artwork","image":"","website":"https://artuk.org/discover/artworks/seven-slate-towers-296447"}},{"type":"Feature","geometry":{"type":"Point","coordinates":[-0.290275,51.478835]},"properties":{"name":"Shaft Yard Gate","category":"gate","kind":"gate","detail":"Entrance","image":"","website":""}},{"type":"Feature","geometry":{"type":"Point","coordinates":[-0.292365,51.474656]},"properties":{"name":"Shirley Sherwood Gallery","category":"gallery","kind":"gallery","detail":"Gallery","image":"","website":""}},{"type":"Feature","geometry":{"type":"Point","coordinates":[-0.303664,51.472526]},"properties":{"name":"Stag Beetle Loggery","category":"attraction","kind":"attraction","detail":"Attraction","image":"","website":""}},{"type":"Feature","geometry":{"type":"Point","coordinates":[-0.288283,51.481684]},"properties":{"name":"Student Vegetable Plots","category":"garden","kind":"garden","detail":"Garden","image":"","website":""}},{"type":"Feature","geometry":{"type":"Point","coordinates":[-0.304751,51.47663]},"properties":{"name":"Syon Outlook","category":"attraction","kind":"viewpoint","detail":"viewpoint","image":"","website":""}},{"type":"Feature","geometry":{"type":"Point","coordinates":[-0.294791,51.474345]},"properties":{"name":"Temperate House","category":"glasshouse","kind":"glasshouse","detail":"Glasshouse","image":"","website":"https://www.kew.org/kew-gardens/whats-on/kew-explorer-land-train"}},{"type":"Feature","geometry":{"type":"Point","coordinates":[-0.28999,51.480273]},"properties":{"name":"Temple of Aeolus","category":"attraction","kind":"folly","detail":"folly","image":"https://commons.wikimedia.org/wiki/Special:FilePath/Temple%20of%20Aeolus%2C%20Kew%20Gardens%2C%20May%202012.jpg?width=480","website":""}},{"type":"Feature","geometry":{"type":"Point","coordinates":[-0.290826,51.478728]},"properties":{"name":"Temple of Arethusa","category":"attraction","kind":"folly","detail":"folly","image":"https://commons.wikimedia.org/wiki/Special:FilePath/Temple%20of%20Arethusa%2C%20Kew%20Gardens%2001.JPG?width=480","website":""}},{"type":"Feature","geometry":{"type":"Point","coordinates":[-0.291412,51.477205]},"properties":{"name":"Temple of Bellona","category":"attraction","kind":"folly","detail":"folly","image":"https://commons.wikimedia.org/wiki/Special:FilePath/The%20Temple%20of%20Bellona%2C%20Kew%20Gardens%20May%202012.jpg?width=480","website":""}},{"type":"Feature","geometry":{"type":"Point","coordinates":[-0.295436,51.48432]},"properties":{"name":"Terminal Figure","category":"attraction","kind":"artwork","detail":"Artwork","image":"","website":""}},{"type":"Feature","geometry":{"type":"Point","coordinates":[-0.290081,51.479689]},"properties":{"name":"The Botanical Brasserie","category":"food","kind":"restaurant","detail":"Restaurant","image":"","website":""}},{"type":"Feature","geometry":{"type":"Point","coordinates":[-0.296044,51.481929]},"properties":{"name":"The Children's Garden","category":"attraction","kind":"attraction","detail":"Attraction","image":"","website":""}},{"type":"Feature","geometry":{"type":"Point","coordinates":[-0.289818,51.483103]},"properties":{"name":"The Director's Garden","category":"garden","kind":"garden","detail":"Garden","image":"","website":""}},{"type":"Feature","geometry":{"type":"Point","coordinates":[-0.289062,51.482863]},"properties":{"name":"The Duke's Garden","category":"garden","kind":"garden","detail":"Garden","image":"","website":""}},{"type":"Feature","geometry":{"type":"Point","coordinates":[-0.292707,51.479685]},"properties":{"name":"The Falcon of the Plantagenets","category":"attraction","kind":"artwork","detail":"Artwork","image":"","website":""}},{"type":"Feature","geometry":{"type":"Point","coordinates":[-0.295372,51.470686]},"properties":{"name":"The Great Pagoda","category":"attraction","kind":"attraction","detail":"Attraction","image":"","website":"https://www.kew.org/kew-gardens/whats-on/kew-explorer-land-train"}},{"type":"Feature","geometry":{"type":"Point","coordinates":[-0.292066,51.482111]},"properties":{"name":"The Hive","category":"attraction","kind":"artwork","detail":"Artwork","image":"https://commons.wikimedia.org/wiki/Special:FilePath/At%20Royal%20Botanic%20Gardens%2C%20Kew%202024%20058.jpg?width=480","website":"http://www.kew.org/visit-kew-gardens/explore/attractions/hive"}},{"type":"Feature","geometry":{"type":"Point","coordinates":[-0.293076,51.483295]},"properties":{"name":"The Orangery","category":"food","kind":"restaurant","detail":"Restaurant","image":"https://commons.wikimedia.org/wiki/Special:FilePath/Kew%20Orangery%205138.JPG?width=480","website":""}},{"type":"Feature","geometry":{"type":"Point","coordinates":[-0.293555,51.483475]},"properties":{"name":"The Orangery Drinking Fountain","category":"facility","kind":"drinking_water","detail":"Drinking water","image":"","website":"https://artuk.org/discover/artworks/drinking-fountain-296425"}},{"type":"Feature","geometry":{"type":"Point","coordinates":[-0.294948,51.477349]},"properties":{"name":"The Ornate fountain","category":"facility","kind":"drinking_water","detail":"Drinking water","image":"","website":"https://artuk.org/discover/artworks/drinking-fountain-296445"}},{"type":"Feature","geometry":{"type":"Point","coordinates":[-0.295268,51.484112]},"properties":{"name":"The Queen's Garden","category":"garden","kind":"garden","detail":"Garden","image":"","website":""}},{"type":"Feature","geometry":{"type":"Point","coordinates":[-0.28927,51.482489]},"properties":{"name":"The Sower","category":"attraction","kind":"artwork","detail":"Artwork","image":"https://commons.wikimedia.org/wiki/Special:FilePath/Thornycroft%20-%20A%20sower%2040895.JPG?width=480","website":"https://www.pmsa.org.uk/pmsa-database/3946/"}},{"type":"Feature","geometry":{"type":"Point","coordinates":[-0.292091,51.478576]},"properties":{"name":"The White Greyhound of Richmond","category":"attraction","kind":"artwork","detail":"Artwork","image":"","website":""}},{"type":"Feature","geometry":{"type":"Point","coordinates":[-0.295711,51.482453]},"properties":{"name":"Treehouse Towers","category":"facility","kind":"drinking_water","detail":"Drinking water","image":"http://findafountain.org/system/865/original/uk-greater-london-london-richmond-treehouse-towers-kew-gardens-outdoor-fountain.jpg","website":""}},{"type":"Feature","geometry":{"type":"Point","coordinates":[-0.290994,51.47708]},"properties":{"name":"Unicorn Gate","category":"gate","kind":"gate","detail":"Entrance","image":"https://commons.wikimedia.org/wiki/Special:FilePath/Unicorn%20Gate%20(geograph%205278575).jpg?width=480","website":""}},{"type":"Feature","geometry":{"type":"Point","coordinates":[-0.290668,51.477874]},"properties":{"name":"Victoria Gate","category":"gate","kind":"gate","detail":"Entrance","image":"https://commons.wikimedia.org/wiki/Special:FilePath/Victoria%20Gate%2C%20Kew%20Gardens%2C%20London.jpg?width=480","website":""}},{"type":"Feature","geometry":{"type":"Point","coordinates":[-0.290915,51.478138]},"properties":{"name":"Victoria Plaza café","category":"food","kind":"cafe","detail":"Café","image":"","website":""}},{"type":"Feature","geometry":{"type":"Point","coordinates":[-0.293268,51.47999]},"properties":{"name":"Waterlily House","category":"glasshouse","kind":"glasshouse","detail":"Glasshouse","image":"https://commons.wikimedia.org/wiki/Special:FilePath/Kew%20Gardens%20Waterlily%20House%20-%20Sept%202008.jpg?width=480","website":""}},{"type":"Feature","geometry":{"type":"Point","coordinates":[-0.2922,51.477821]},"properties":{"name":"Wild Rose Garden","category":"garden","kind":"garden","detail":"Garden","image":"","website":""}},{"type":"Feature","geometry":{"type":"Point","coordinates":[-0.290158,51.483948]},"properties":{"name":"William and Joseph Hooker","category":"attraction","kind":"memorial","detail":"Memorial","image":"","website":""}},{"type":"Feature","geometry":{"type":"Point","coordinates":[-0.291729,51.481532]},"properties":{"name":"Winter Garden","category":"garden","kind":"garden","detail":"Garden","image":"","website":""}},{"type":"Feature","geometry":{"type":"Point","coordinates":[-0.291501,51.482575]},"properties":{"name":"Wisteria","category":"attraction","kind":"attraction","detail":"Attraction","image":"","website":""}},{"type":"Feature","geometry":{"type":"Point","coordinates":[-0.290409,51.480483]},"properties":{"name":"Woodland Garden","category":"garden","kind":"garden","detail":"Garden","image":"","website":""}},{"type":"Feature","geometry":{"type":"Point","coordinates":[-0.299038,51.474217]},"properties":{"name":"Woodland Glade","category":"garden","kind":"garden","detail":"Garden","image":"","website":""}},{"type":"Feature","geometry":{"type":"Point","coordinates":[-0.292271,51.482206]},"properties":{"name":"World Environment Day Time Capsule","category":"attraction","kind":"time_capsule","detail":"time capsule","image":"","website":""}}]}